Name,Charity Number,Local authority,Postcode,Latitude,Longitude,IntermediateZone2011Code,DataZone2011Code
Alva Parish Church Of Scotland,SC000006,Clackmannanshire,FK12 5AT,56.14991377,-3.80106671,S02001396,S01007428
Alva Toddlers Group,SC009357,Clackmannanshire,FK12 5EL,56.15273778,-3.80398417,S02001396,S01007428
Clackmannanshire Citizens Advice Bureau Limited,SC001839,Clackmannanshire,FK10 1HS,56.11439733,-3.79387379,S02001402,S01007466
Tillicoultry Old Age Pensioners Outing Fund,SC002564,Clackmannanshire,FK10 1EB,56.11335704,-3.79001358,S02001402,S01007466
Alloa Day Home Trust,SC003413,Clackmannanshire,FK10 1EB,56.11335704,-3.79001358,S02001402,S01007466
Old Folks Welfare Fund Tillicoultry Town Council,SC004079,Clackmannanshire,FK10 1EB,56.11335704,-3.79001358,S02001402,S01007466
Thomas Murray Trust,SC005595,Clackmannanshire,FK10 1HP,56.11386576,-3.79335046,S02001402,S01007466
Clackmannanshire Educational Trust Scheme 1957,SC008282,Clackmannanshire,FK10 1EB,56.11335704,-3.79001358,S02001402,S01007466
Clackmannan District Council Charitable Trust,SC011479,Clackmannanshire,FK10 1EB,56.11335704,-3.79001358,S02001402,S01007466
Miss Annie Johnston Spittal Bequest,SC018529,Clackmannanshire,FK10 1EB,56.11335704,-3.79001358,S02001402,S01007466
Reachout With Arts In Mind,SC023779,Clackmannanshire,FK10 1EX,56.11227305,-3.79658946,S02001402,S01007466
26th Stirling Boys Brigade (Alloa : Moncrieff U F Church),SC033108,Clackmannanshire,FK10 1DS,56.11442195,-3.7971239,S02001402,S01007466
Community Maintenance and Environmental Enterprise Limited,SC042064,Clackmannanshire,FK10 1HS,56.11439733,-3.79387379,S02001402,S01007466
Wimpy Park Community Group,SC047539,Clackmannanshire,FK10 1BT,56.11089112,-3.79026897,S02001402,S01007466
Connect Alloa,SC049028,Clackmannanshire,FK10 1LJ,56.11361286,-3.79591207,S02001402,S01007466
Gartmorn Dam Country Park Development Trust,SC049288,Clackmannanshire,FK10 1HS,56.11439733,-3.79387379,S02001402,S01007466
Clackmannanshire Economic Regeneration Trust SCIO,SC050327,Clackmannanshire,FK10 1HS,56.11439733,-3.79387379,S02001402,S01007466
St James Episcopal Church: Dollar,SC002988,Clackmannanshire,FK14 7BL,56.16884307,-3.66623951,S02001399,S01007445
Moncrieff United Free Church,SC003371,Clackmannanshire,FK10 2BL,56.12204477,-3.79014369,S02001403,S01007468
The Workshop-Alloa Community Arts Centre,SC003420,Clackmannanshire,FK10 2BL,56.12204477,-3.79014369,S02001403,S01007468
Tillicoultry Evangelical Union Congregational Church,SC004116,Clackmannanshire,FK13 6DS,56.15293665,-3.74191196,S02001398,S01007435
Menstrie Parish Church of Scotland,SC004778,Clackmannanshire,FK11 7HW,56.1492339,-3.84530605,S02001395,S01007424
Menstrie Charitable Association,SC010114,Clackmannanshire,FK11 7AQ,56.15228783,-3.84780307,S02001395,S01007424
Menstrie Tiny Tots,SC023049,Clackmannanshire,FK11 7AN,56.15090166,-3.84675446,S02001395,S01007424
"St Serfs Church of Scotland, Tullibody",SC005918,Clackmannanshire,FK10 2TL,56.13371529,-3.82895304,S02001394,S01007415
Tullibody & Cambus Pensioners Association,SC029794,Clackmannanshire,FK10 2RW,56.13561698,-3.83523913,S02001394,S01007415
Hawkhill Community Association,SC006797,Clackmannanshire,FK10 1SB,56.11526474,-3.78175444,S02001402,S01007463
Community House Limited,SC035942,Clackmannanshire,FK10 1QE,56.11302022,-3.77849835,S02001402,S01007463
Alloa Amateur Gymnastics Club,SC051283,Clackmannanshire,FK10 1RY,56.11688025,-3.77940031,S02001402,S01007463
Alloa Ludgate Church of Scotland,SC007605,Clackmannanshire,FK10 3SH,56.11930407,-3.77832187,S02001402,S01007462
"St Mungo's Parish Church of Scotland, Alloa",SC007821,Clackmannanshire,FK10 2DZ,56.12059228,-3.80165851,S02001404,S01007477
Tillicoultry Toddlers Group,SC008029,Clackmannanshire,FK13 6JD,56.14632302,-3.74063076,S02001397,S01007434
The Wee County Men's Shed,SC046027,Clackmannanshire,FK13 6HP,56.14753463,-3.74264946,S02001397,S01007434
Friends of Stirlingshire's Historic Graveyards,SC049273,Clackmannanshire,FK13 6JA,56.14634494,-3.74417312,S02001397,S01007434
Muckhart Parish Church of Scotland,SC009418,Clackmannanshire,FK14 7LH,56.18843043,-3.61423324,S02001399,S01007447
Dollar Parish Church of Scotland,SC009713,Clackmannanshire,FK13 6DA,56.15102057,-3.74905373,S02001398,S01007436
Hillfoots Hub SCIO ,SC049109,Clackmannanshire,FK13 6BP,56.15163652,-3.75061116,S02001398,S01007436
Sauchie & Fishcross United Free Church,SC009740,Clackmannanshire,FK10 4JG,56.10735321,-3.754405,S02001400,S01007452
Friends Of Alloa Tower,SC017733,Clackmannanshire,FK10 4BW,56.08779922,-3.74935288,S02001400,S01007452
Kennetpans Trust (SCIO),SC042668,Clackmannanshire,FK10 4BW,56.08779922,-3.74935288,S02001400,S01007452
The Lodge Alloa No69 Benevolent Fund,SC049422,Clackmannanshire,FK10 4BW,56.08779922,-3.74935288,S02001400,S01007452
Clackmannanshire Heritage Trust,SC010250,Clackmannanshire,FK10 2GB,56.13861612,-3.83478659,S02001394,S01007417
Tullibody History Group,SC033965,Clackmannanshire,FK10 3BE,56.13775999,-3.82463887,S02001394,S01007417
2nd Dollar Scout Group,SC011013,Clackmannanshire,FK14 7DN,56.16348543,-3.6737052,S02001399,S01007444
"Dollar, Muckhart and District Friends of Guiding",SC042858,Clackmannanshire,FK14 7AP,56.16644358,-3.66692473,S02001399,S01007444
Dollar Community Development Trust,SC047335,Clackmannanshire,FK14 7AA,56.16229402,-3.67011059,S02001399,S01007444
Ochil Youths Community Improvement,SC050114,Clackmannanshire,FK14 7AA,56.16229402,-3.67011059,S02001399,S01007444
Home-Start Clackmannanshire,SC011370,Clackmannanshire,FK10 3SA,56.12115138,-3.7817049,S02001401,S01007460
Clackmannanshire Guide Association,SC022673,Clackmannanshire,FK10 3SA,56.12115138,-3.7817049,S02001401,S01007460
Sauchie Community Group,SC025832,Clackmannanshire,FK10 3EA,56.12694235,-3.78268064,S02001401,S01007460
Girlguiding Clackmannan District,SC038646,Clackmannanshire,FK10 3SA,56.12115138,-3.7817049,S02001401,S01007460
1st Muckhart Brownie Unit,SC038946,Clackmannanshire,FK10 3SA,56.12115138,-3.7817049,S02001401,S01007460
9th Alloa Brownie Unit,SC039115,Clackmannanshire,FK10 3SA,56.12115138,-3.7817049,S02001401,S01007460
9th Alloa Guide Unit,SC040069,Clackmannanshire,FK10 3SA,56.12115138,-3.7817049,S02001401,S01007460
3rd Alloa Rainbows,SC040283,Clackmannanshire,FK10 3SA,56.12115138,-3.7817049,S02001401,S01007460
2nd Alva Brownies,SC040284,Clackmannanshire,FK10 3SA,56.12115138,-3.7817049,S02001401,S01007460
1st Sauchie Rainbow Unit,SC040358,Clackmannanshire,FK10 3SA,56.12115138,-3.7817049,S02001401,S01007460
2nd Sauchie Guide Unit,SC040359,Clackmannanshire,FK10 3SA,56.12115138,-3.7817049,S02001401,S01007460
1st Menstrie Brownies,SC040362,Clackmannanshire,FK10 3SA,56.12115138,-3.7817049,S02001401,S01007460
1st Sauchie Ranger Unit,SC040364,Clackmannanshire,FK10 3SA,56.12115138,-3.7817049,S02001401,S01007460
4th Alloa Brownies,SC040367,Clackmannanshire,FK10 3SA,56.12115138,-3.7817049,S02001401,S01007460
2nd Sauchie Brownie Unit,SC040371,Clackmannanshire,FK10 3SA,56.12115138,-3.7817049,S02001401,S01007460
1st Menstrie Rainbows,SC040379,Clackmannanshire,FK10 3SA,56.12115138,-3.7817049,S02001401,S01007460
1st Alva Guide Unit,SC040382,Clackmannanshire,FK10 3SA,56.12115138,-3.7817049,S02001401,S01007460
2nd Alva Rainbows,SC040497,Clackmannanshire,FK10 3SA,56.12115138,-3.7817049,S02001401,S01007460
2nd Alva Guides,SC040684,Clackmannanshire,FK10 3SA,56.12115138,-3.7817049,S02001401,S01007460
1st Alloa Rainbows,SC042106,Clackmannanshire,FK10 3SA,56.12115138,-3.7817049,S02001401,S01007460
Alloa Senior Section,SC042195,Clackmannanshire,FK10 3SA,56.12115138,-3.7817049,S02001401,S01007460
2nd Dollar Brownies,SC042196,Clackmannanshire,FK10 3SA,56.12115138,-3.7817049,S02001401,S01007460
3rd Tulliallan Brownies,SC042199,Clackmannanshire,FK10 3SA,56.12115138,-3.7817049,S02001401,S01007460
1st Tulliallan Guides,SC042201,Clackmannanshire,FK10 3SA,56.12115138,-3.7817049,S02001401,S01007460
1st Tulliallan Rainbows,SC042202,Clackmannanshire,FK10 3SA,56.12115138,-3.7817049,S02001401,S01007460
3rd Alloa Brownies,SC042662,Clackmannanshire,FK10 3SA,56.12115138,-3.7817049,S02001401,S01007460
4th Alloa Guides,SC043073,Clackmannanshire,FK10 3SA,56.12115138,-3.7817049,S02001401,S01007460
2nd Clackmannan Rainbow Unit,SC047312,Clackmannanshire,FK10 3SA,56.12115138,-3.7817049,S02001401,S01007460
2nd Clackmannan Brownie Unit,SC047313,Clackmannanshire,FK10 3SA,56.12115138,-3.7817049,S02001401,S01007460
Sauchie Community Group SCIO,SC047657,Clackmannanshire,FK10 3EA,56.12694235,-3.78268064,S02001401,S01007460
2nd Dollar Guide Unit,SC048856,Clackmannanshire,FK10 3SA,56.12115138,-3.7817049,S02001401,S01007460
The Cochrane Foundation,SC014124,Clackmannanshire,FK12 5ES,56.15345214,-3.79751313,S02001396,S01007430
Hillfoots YMCA,SC039607,Clackmannanshire,FK12 5JT,56.15515705,-3.79520982,S02001396,S01007430
Lodge St Servanus No. 771 Benevolent Fund,SC048120,Clackmannanshire,FK12 5JR,56.15596178,-3.79734054,S02001396,S01007430
Tillicoultry Parish Church of Scotland,SC016570,Clackmannanshire,FK13 6QJ,56.15231533,-3.73241727,S02001398,S01007442
Alloa and Sauchie Scout Group,SC017179,Clackmannanshire,FK10 2EW,56.12755124,-3.81979503,S02001403,S01007474
Tullibody Under Fives Group,SC017301,Clackmannanshire,FK10 2QP,56.13610889,-3.84083081,S02001394,S01007419
Tullibody Community Football  Club,SC042874,Clackmannanshire,FK10 2QG,56.13570743,-3.84485097,S02001394,S01007419
Sauchie And Coalsnaughton Parish Church Of Scotland,SC018155,Clackmannanshire,FK10 3JX,56.12991372,-3.77665554,S02001401,S01007457
Dollar Museum Trust,SC022185,Clackmannanshire,FK10 2NT,56.12522199,-3.8302552,S02001393,S01007413
Friends of Clackmannanshire Heritage,SC031489,Clackmannanshire,FK10 2NT,56.12522199,-3.8302552,S02001393,S01007413
Team Abercromby,SC036612,Clackmannanshire,FK10 2NQ,56.12538299,-3.84118706,S02001393,S01007413
Alva Play Pals Out Of School Care,SC024114,Clackmannanshire,FK12 5AN,56.15172783,-3.79806048,S02001396,S01007429
Lodge Ben Cleuch No 782 Benevolent Fund,SC024270,Clackmannanshire,FK13 6PL,56.15697027,-3.73560562,S02001398,S01007439
Tillicoultry Centenary Hall Company Limited,SC027341,Clackmannanshire,FK13 6EL,56.15437694,-3.74300758,S02001398,S01007439
5th Clackmannanshire (1st Tillicoultry) Scout Group,SC035905,Clackmannanshire,FK13 6EJ,56.1542975,-3.74417931,S02001398,S01007439
Devonvale Hall Company Limited,SC036837,Clackmannanshire,FK13 6EX,56.15409982,-3.74481437,S02001398,S01007439
Clackmannan Council Charitable Trusts,SC025069,Clackmannanshire,FK10 2AD,56.11808251,-3.79566997,S02001403,S01007467
Alloa Writers,SC028294,Clackmannanshire,FK10 1NE,56.11422603,-3.80869518,S02001404,S01007480
SMTC Alloa Muay Thai and Fitness Academy,SC048153,Clackmannanshire,FK10 1LB,56.11430602,-3.81120803,S02001404,S01007480
Forth Valley Group Riding For The Disabled,SC028632,Clackmannanshire,FK12 5NQ,56.15458219,-3.81548609,S02001396,S01007425
Alva Development Trust,SC048689,Clackmannanshire,FK12 5LJ,56.15328446,-3.80900087,S02001396,S01007425
Alva Pensioners Association,SC028878,Clackmannanshire,FK12 5ER,56.15351727,-3.78993294,S02001396,S01007431
1st Alva Scout Group (4th Clackmannanshire),SC035383,Clackmannanshire,FK12 5JB,56.15333799,-3.78804088,S02001396,S01007431
Alva Parklands Centre,SC028879,Clackmannanshire,FK12 5BG,56.15309237,-3.8055464,S02001396,S01007426
Alva Glen Heritage Trust SCIO,SC036610,Clackmannanshire,FK12 5LE,56.15521424,-3.80546885,S02001396,S01007426
Friends Of Sauchie Tower,SC035860,Clackmannanshire,FK10 3NP,56.12593584,-3.77457362,S02001401,S01007455
Clackmannan Town Hall Trust,SC036526,Clackmannanshire,FK10 4JP,56.1036781,-3.74742014,S02001400,S01007449
Clackmannanshire District Scout Council,SC037100,Clackmannanshire,FK10 2TY,56.13575277,-3.82425409,S02001394,S01007416
Patons & Baldwins Recreation and Welfare Trust,SC041115,Clackmannanshire,FK10 2NL,56.12243647,-3.80151952,S02001403,S01007470
Women 4 Women,SC043950,Clackmannanshire,FK10 2ND,56.12380613,-3.80126181,S02001403,S01007470
Cambus & District Bowling Club,SC041403,Clackmannanshire,FK10 2QW,56.13011982,-3.84472815,S02001393,S01007409
The Gate Charity,SC042809,Clackmannanshire,FK10 3HN,56.13166328,-3.79115389,S02001397,S01007432
Royal British Legion Scotland Clackmannanshire and District Branch,SC043127,Clackmannanshire,FK10 1DB,56.11016538,-3.79136102,S02001402,S01007465
The Joanna Morgan Jones Educational Trust,SC043504,Clackmannanshire,FK14 7PT,56.16251764,-3.69329352,S02001399,S01007443
Menstrie Primary School Parent Council,SC044006,Clackmannanshire,FK11 7BZ,56.14999271,-3.85583899,S02001395,S01007422
Coalsnaughton Devonside and Langour Village Hall SCIO,SC045817,Clackmannanshire,FK13 6RJ,56.14163649,-3.73586396,S02001397,S01007433
Fishcross Primary School Parent Council,SC051096,Clackmannanshire,FK13 6DQ,56.14428722,-3.73843011,S02001397,S01007433
Clackmannan Development Trust,SC045874,Clackmannanshire,FK10 4JA,56.1073187,-3.75113901,S02001400,S01007450
Bannockburn House Trust,SC047081,Clackmannanshire,FK10 1PH,56.11110596,-3.76975764,S02001400,S01007453
Sauchie Active 8 SCIO,SC047649,Clackmannanshire,FK10 3AE,56.13999232,-3.82620928,S02001394,S01007420
Alloa Musical Players (SCIO),SC047773,Clackmannanshire,FK11 7EG,56.15275247,-3.83713489,S02001394,S01007420
Menstrie Community Action Group Ltd,SC049242,Clackmannanshire,FK11 7EE,56.15233295,-3.83875706,S02001394,S01007420
Primary Concern,SC049527,Clackmannanshire,FK10 2UR,56.13909284,-3.82017952,S02001394,S01007420
Tullibody Community Development Trust,SC047890,Clackmannanshire,FK10 2RS,56.13046377,-3.83611995,S02001393,S01007412
Tillicoultry Primary School Parent Council ,SC048504,Clackmannanshire,FK13 6RH,56.1541636,-3.73646116,S02001398,S01007440
Tullibody Community Garden,SC050723,Clackmannanshire,FK10 2SR,56.13344382,-3.84659312,S02001393,S01007410
